{
    "$schema": "./restaurants.schema.json",
    "view": {
        "bounds": [
            [
                24.989601719975852,
                121.4377327197165
            ],
            [
                35.667497477838516,
                139.75602065560923
            ]
        ]
    },
    "items": [
        {
            "name": "老建中麵店",
            "lat": 25.02912475143138,
            "lng": 121.5145496354394,
            "tier": 2,
            "priceBucket": 150,
            "address": "100 臺北市中正區泉州街39號",
            "notes": "一定要吃紅油抄手麵加白飯切花干，上菜速度比較慢\ntest",
            "tags": [
                "麵食",
                "小吃"
            ]
        },
        {
            "name": "十巷咖哩",
            "lat": 25.064236979099842,
            "lng": 121.523763719133,
            "tier": 0,
            "priceBucket": 200,
            "address": "104臺北市中山區雙城街10巷25-1號",
            "notes": "排很久但值得，飯醬可以無限續，可以加奶油或花椒，咖哩香料味濃、炸豬排炸雞塊香酥脆汁開胃",
            "tags": [
                "咖哩",
                "炸物",
                "米飯"
            ]
        },
        {
            "name": "鳳城燒臘",
            "lat": 25.0203065,
            "lng": 121.533749,
            "tier": 3,
            "priceBucket": 150,
            "address": "106臺北市大安區新生南路三段58之3號",
            "notes": "廣州炒麵味道很鮮；炒飯類偏乾，燴飯沒什麼味道",
            "tags": [
                "米飯",
                "粵菜",
                "麵食"
            ]
        },
        {
            "name": "一蘭 新橋店",
            "lat": 35.667497477838516,
            "lng": 139.75602065560923,
            "tier": 3,
            "priceBucket": 300,
            "address": "日本〒105-0004 Tokyo, Minato City, Shinbashi, 2 Chome−5−6 2F",
            "notes": "還行",
            "tags": [
                "麵食",
                "拉麵"
            ]
        },
        {
            "name": "義利坊現炒義大利麵",
            "lat": 25.057892251803526,
            "lng": 121.52153758162696,
            "tier": 2,
            "priceBucket": 150,
            "address": "10491臺北市中山區民生西路13號2樓",
            "notes": "20顆蛤蜊義大利麵味道鮮美份量十足",
            "tags": [
                "義大利麵",
                "麵食"
            ]
        },
        {
            "name": "大盛豬排",
            "lat": 25.014356204019045,
            "lng": 121.53390419220129,
            "tier": 2,
            "priceBucket": 300,
            "address": "100臺北市中正區羅斯福路四段52巷16弄15-1號",
            "notes": "豬排厚且香，從小吃到大；推味噌豬排，聽說咖哩普通",
            "tags": [
                "炸物",
                "日式",
                "咖哩"
            ]
        },
        {
            "name": "景美麵點小吃",
            "lat": 24.99147917841107,
            "lng": 121.53966524160148,
            "tier": 3,
            "priceBucket": 100,
            "address": "116臺北市文山區萬慶街13巷29號",
            "notes": "台北最便宜，炸豆腐宇宙好吃",
            "tags": [
                "小吃",
                "麵食",
                "炸物",
                "台式",
                "飯食"
            ]
        },
        {
            "name": "MINT PASTA 綠薄荷麵食坊",
            "lat": 24.989890894791856,
            "lng": 121.54229102574504,
            "tier": 2,
            "priceBucket": 200,
            "address": "116臺北市文山區景興路274之2號",
            "notes": "口味都不錯，推透抽細麵、泰式咖喱、薯條；空間大適合多人聚餐",
            "tags": [
                "麵食",
                "義大利麵"
            ]
        },
        {
            "name": "蔓尼義大利麵坊",
            "lat": 24.98963982009783,
            "lng": 121.54195384442154,
            "tier": 4,
            "priceBucket": 200,
            "address": "116臺北市文山區景興路282巷5號",
            "notes": "份量大但沒什麼味道",
            "tags": [
                "麵食",
                "義大利麵"
            ]
        },
        {
            "name": "泰船屋",
            "lat": 24.99385412120152,
            "lng": 121.54156190540951,
            "tier": 3,
            "priceBucket": 100,
            "address": "116臺北市文山區羅斯福路六段319號1樓後棟",
            "notes": "湯跟麵味道不錯份量足，炸物有點油耗味但吃起來蠻爽蠻多的",
            "tags": [
                "泰式",
                "炸物",
                "麵食"
            ]
        },
        {
            "name": "食頃",
            "lat": 24.99408187772572,
            "lng": 121.54158074404623,
            "tier": 2,
            "priceBucket": 250,
            "address": "116臺北市文山區羅斯福路六段309號後棟",
            "notes": "咖哩香料味十足，可以加飯，老闆人很nice",
            "tags": [
                "咖哩",
                "飯食"
            ]
        },
        {
            "name": "鵝媽媽鵝肉切仔麵",
            "lat": 24.990556563861468,
            "lng": 121.54240169845367,
            "tier": 2,
            "priceBucket": 200,
            "address": "116臺北市文山區景後街129號1 樓",
            "notes": "鵝肉好好吃但好貴...",
            "tags": [
                "台式",
                "小吃"
            ]
        },
        {
            "name": "利庵咖哩 景美店",
            "lat": 24.989601719975852,
            "lng": 121.54207556286359,
            "tier": 1,
            "priceBucket": 250,
            "address": "116臺北市文山區景興路282巷3號",
            "notes": "香料味夠，配料豐富且味道不衝突",
            "tags": [
                "咖哩",
                "飯食"
            ]
        },
        {
            "name": "東京廚房",
            "lat": 24.9948735932634,
            "lng": 121.54243349171475,
            "tier": 2,
            "priceBucket": 300,
            "address": "116臺北市文山區景華街24號",
            "notes": "咖哩不錯，肉類都弄得很好，菜有點太多了但還行，有紫薯扣分",
            "tags": [
                "咖哩",
                "飯食"
            ]
        },
        {
            "name": "三豐芋冰城",
            "lat": 25.009795112501717,
            "lng": 121.4616717841842,
            "tier": 2,
            "priceBucket": 50,
            "address": "220新北市板橋區民族路15號",
            "notes": "清冰好吃",
            "tags": [
                "冰品",
                "甜點"
            ]
        },
        {
            "name": "手工阿給創始店",
            "lat": 25.16965759740891,
            "lng": 121.4414169165455,
            "tier": 5,
            "priceBucket": 100,
            "address": "251新北市淡水區中正路126號",
            "notes": "這才不是正宗的阿給 幹",
            "tags": [
                "小吃"
            ]
        },
        {
            "name": "三姐妹阿給",
            "lat": 25.173502175191608,
            "lng": 121.4377327197165,
            "tier": 2,
            "priceBucket": 50,
            "address": "251新北市淡水區真理街2巷1號",
            "notes": "正宗好吃的阿給，推薦加甜辣",
            "tags": [
                "小吃"
            ]
        }
    ]
}
