{
    "$schema": "./restaurants.schema.json",
    "currency": {
        "code": "TWD",
        "symbol": "$"
    },
    "view": {
        "bounds": [
            [
                24.989601719975852,
                121.4377327197165
            ],
            [
                25.173502175191608,
                121.54318065459434
            ]
        ]
    },
    "items": [
        {
            "name": "MINT PASTA 綠薄荷麵食坊",
            "lat": 24.989890894791856,
            "lng": 121.54229102574504,
            "tier": 2,
            "priceBucket": 200,
            "address": "116臺北市文山區景興路274之2號",
            "comments": [
                {
                    "tier": 2,
                    "notes": "口味都不錯，推透抽細麵、泰式咖喱、薯條；空間大適合多人聚餐"
                }
            ],
            "tags": [
                "麵食",
                "義大利麵"
            ]
        },
        {
            "name": "三姐妹阿給",
            "lat": 25.173502175191608,
            "lng": 121.4377327197165,
            "tier": 2,
            "priceBucket": 50,
            "address": "251新北市淡水區真理街2巷1號",
            "comments": [
                {
                    "tier": 2,
                    "notes": "正宗好吃的阿給，推薦加甜辣"
                }
            ],
            "tags": [
                "小吃"
            ]
        },
        {
            "name": "三豐芋冰城",
            "lat": 25.009795112501717,
            "lng": 121.4616717841842,
            "tier": 2,
            "priceBucket": 50,
            "address": "220新北市板橋區民族路15號",
            "comments": [
                {
                    "tier": 2,
                    "notes": "清冰好吃"
                }
            ],
            "tags": [
                "冰品",
                "甜點"
            ]
        },
        {
            "name": "二屋牡蠣拉麵",
            "lat": 25.05454005925982,
            "lng": 121.52018091840326,
            "tier": 1,
            "priceBucket": 350,
            "address": "103臺北市大同區赤峰街35巷11號",
            "comments": [
                {
                    "tier": 1,
                    "notes": "我愛鮮味炸彈，很濃頭很暈，每次都吃不動但每次都還想再吃"
                }
            ],
            "tags": [
                "麵食",
                "拉麵",
                "海鮮"
            ]
        },
        {
            "name": "切麥狐狸 中山店",
            "lat": 25.0516104551831,
            "lng": 121.52354223775338,
            "tier": 5,
            "priceBucket": 300,
            "address": "104004臺北市中山區天津街63號",
            "comments": [
                {
                    "tier": 5,
                    "notes": "貴且味道比米澤稍爛"
                }
            ],
            "tags": [
                "麵食",
                "日式"
            ]
        },
        {
            "name": "利庵咖哩 景美店",
            "lat": 24.989601719975852,
            "lng": 121.54207556286359,
            "tier": 1,
            "priceBucket": 250,
            "address": "116臺北市文山區景興路282巷3號",
            "comments": [
                {
                    "tier": 1,
                    "notes": "香料味夠，配料豐富且味道不衝突"
                }
            ],
            "tags": [
                "咖哩",
                "飯食"
            ]
        },
        {
            "name": "十巷咖哩",
            "lat": 25.064236979099842,
            "lng": 121.523763719133,
            "tier": 1,
            "priceBucket": 200,
            "address": "104臺北市中山區雙城街10巷25-1號",
            "comments": [
                {
                    "tier": 1,
                    "notes": "排很久但值得，飯醬可以無限續，可以加奶油或花椒，咖哩香料味濃、炸豬排炸雞塊香酥脆汁開胃"
                }
            ],
            "tags": [
                "咖哩",
                "炸物"
            ]
        },
        {
            "name": "大盛豬排",
            "lat": 25.014356204019045,
            "lng": 121.53390419220129,
            "tier": 2,
            "priceBucket": 300,
            "address": "100臺北市中正區羅斯福路四段52巷16弄15-1號",
            "comments": [
                {
                    "tier": 2,
                    "notes": "豬排厚且香，從小吃到大；推味噌豬排，聽說咖哩普通"
                }
            ],
            "tags": [
                "炸物",
                "日式",
                "咖哩"
            ]
        },
        {
            "name": "手工阿給創始店",
            "lat": 25.16965759740891,
            "lng": 121.4414169165455,
            "tier": 5,
            "priceBucket": 100,
            "address": "251新北市淡水區中正路126號",
            "comments": [
                {
                    "tier": 5,
                    "notes": "這才不是正宗的阿給 幹"
                }
            ],
            "tags": [
                "小吃"
            ]
        },
        {
            "name": "景美麵點小吃",
            "lat": 24.99147917841107,
            "lng": 121.53966524160148,
            "tier": 2,
            "priceBucket": 100,
            "address": "116臺北市文山區萬慶街13巷29號",
            "comments": [
                {
                    "tier": 2,
                    "notes": "台北最便宜，炸豆腐宇宙好吃"
                }
            ],
            "tags": [
                "小吃",
                "麵食",
                "炸物",
                "台式",
                "飯食"
            ]
        },
        {
            "name": "東京廚房",
            "lat": 24.9948735932634,
            "lng": 121.54243349171475,
            "tier": 2,
            "priceBucket": 300,
            "address": "116臺北市文山區景華街24號",
            "comments": [
                {
                    "tier": 2,
                    "notes": "咖哩不錯，肉類都弄得很好，菜有點太多了但還行，有紫薯扣分"
                }
            ],
            "tags": [
                "咖哩",
                "飯食"
            ]
        },
        {
            "name": "油庫口蚵仔麵線 炭烤香腸",
            "lat": 25.0189397,
            "lng": 121.4642823,
            "tier": 2,
            "priceBucket": 50,
            "address": "220新北市板橋區文化路一段188巷44號",
            "comments": [
                {
                    "tier": 2,
                    "notes": "從小吃到大 好吃"
                }
            ],
            "tags": [
                "麵食",
                "小吃"
            ]
        },
        {
            "name": "泰船屋",
            "lat": 24.99385412120152,
            "lng": 121.54156190540951,
            "tier": 3,
            "priceBucket": 100,
            "address": "116臺北市文山區羅斯福路六段319號1樓後棟",
            "comments": [
                {
                    "tier": 3,
                    "notes": "湯跟麵味道不錯份量足，炸物有點油耗味但吃起來蠻爽蠻多的"
                }
            ],
            "tags": [
                "泰式",
                "炸物",
                "麵食"
            ]
        },
        {
            "name": "湮鯱",
            "lat": 25.04468849932241,
            "lng": 121.54318065459434,
            "tier": 1,
            "priceBucket": 300,
            "address": "106臺北市大安區市民大道三段302號",
            "comments": [
                {
                    "tier": 1,
                    "notes": "螃蟹拉麵很香，風味醋很香，鮮味炸彈"
                }
            ],
            "tags": [
                "日式",
                "拉麵"
            ]
        },
        {
            "name": "滿雞軒",
            "lat": 25.0572296081,
            "lng": 121.52119611896845,
            "tier": 2,
            "priceBucket": 350,
            "address": "10491臺北市中山區中山北路二段84巷37號",
            "comments": [
                {
                    "tier": 2,
                    "notes": "鴨蔥醬油很香，僅次於全盛期魚堺；店面跟麵魚共用，排隊的時候只能選其中一家"
                }
            ],
            "tags": [
                "麵食",
                "拉麵"
            ]
        },
        {
            "name": "義利坊現炒義大利麵",
            "lat": 25.057892251803526,
            "lng": 121.52153758162696,
            "tier": 2,
            "priceBucket": 150,
            "address": "10491臺北市中山區民生西路13號2樓",
            "comments": [
                {
                    "tier": 2,
                    "notes": "20顆蛤蜊義大利麵味道鮮美份量十足"
                }
            ],
            "tags": [
                "義大利麵",
                "麵食"
            ]
        },
        {
            "name": "老建中麵店",
            "lat": 25.02912475143138,
            "lng": 121.5145496354394,
            "tier": 2,
            "priceBucket": 150,
            "address": "100 臺北市中正區泉州街39號",
            "comments": [
                {
                    "tier": 2,
                    "notes": "一定要吃紅油抄手麵加白飯切花干，上菜速度比較慢"
                }
            ],
            "tags": [
                "麵食",
                "小吃"
            ]
        },
        {
            "name": "蔓尼義大利麵坊",
            "lat": 24.98963982009783,
            "lng": 121.54195384442154,
            "tier": 4,
            "priceBucket": 200,
            "address": "116臺北市文山區景興路282巷5號",
            "comments": [
                {
                    "tier": 4,
                    "notes": "份量大但沒什麼味道"
                }
            ],
            "tags": [
                "麵食",
                "義大利麵"
            ]
        },
        {
            "name": "虹品鍋貼水餃專賣店",
            "lat": 25.030168058839344,
            "lng": 121.51642696040537,
            "tier": 6,
            "priceBucket": 100,
            "address": "3號, 1樓 No, No. 41牯嶺街中正區臺北市100",
            "comments": [
                {
                    "tier": 6,
                    "notes": "水餃幾乎沒味道，湯油耗味超重"
                }
            ],
            "tags": [
                "水餃",
                "小吃"
            ]
        },
        {
            "name": "雙連高記手工水餃",
            "lat": 25.057889317199333,
            "lng": 121.52148414249893,
            "tier": 4,
            "priceBucket": 150,
            "address": "104臺北市中山區民生西路17號",
            "comments": [
                {
                    "tier": 4,
                    "notes": "有股豬肉的腥味，不知道憑什麼這麼多人排"
                }
            ],
            "tags": [
                "水餃"
            ]
        },
        {
            "name": "食頃",
            "lat": 24.99408187772572,
            "lng": 121.54158074404623,
            "tier": 2,
            "priceBucket": 250,
            "address": "116臺北市文山區羅斯福路六段309號後棟",
            "comments": [
                {
                    "tier": 2,
                    "notes": "咖哩香料味十足，可以加飯，老闆人很nice"
                }
            ],
            "tags": [
                "咖哩",
                "飯食"
            ]
        },
        {
            "name": "鳳城燒臘",
            "lat": 25.0203065,
            "lng": 121.533749,
            "tier": 3,
            "priceBucket": 150,
            "address": "106臺北市大安區新生南路三段58之3號",
            "comments": [
                {
                    "tier": 3,
                    "notes": "廣州炒麵味道很鮮；炒飯類偏乾，燴飯沒什麼味道"
                }
            ],
            "tags": [
                "粵菜",
                "麵食",
                "配菜",
                "飯食"
            ]
        },
        {
            "name": "鵝媽媽鵝肉切仔麵",
            "lat": 24.990556563861468,
            "lng": 121.54240169845367,
            "tier": 3,
            "priceBucket": 200,
            "address": "116臺北市文山區景後街129號1 樓",
            "comments": [
                {
                    "tier": 3,
                    "notes": "鵝肉好好吃但好貴..."
                }
            ],
            "tags": [
                "台式",
                "小吃"
            ]
        }
    ]
}
