{
    "$schema": "./restaurants.schema.json",
    "view": {
        "bounds": [
            [
                24.98775628485847,
                121.23979482206782
            ],
            [
                25.173502175191608,
                121.5761401776368
            ]
        ]
    },
    "items": [
        {
            "name": "老建中麵店",
            "lat": 25.02912475143138,
            "lng": 121.5145496354394,
            "tier": 4,
            "priceBucket": 150,
            "address": "100 臺北市中正區泉州街39號",
            "notes": "普通　學校附近有情懷加成　不在學校附近就很毫無優點\n一定要吃紅油抄手麵加白飯切花干，上菜速度比較慢 - 鴿",
            "tags": [
                "麵食",
                "小吃"
            ]
        },
        {
            "name": "江浙四海",
            "lat": 25.029995580464565,
            "lng": 121.51579142428423,
            "tier": 2,
            "priceBucket": 100,
            "address": "10076臺北市中正區寧波西街87號",
            "notes": "炒飯配他旁邊那個辣醬很頂 (ps.他的座標現在是老建的 我很懶)",
            "tags": [
                "小吃"
            ]
        },
        {
            "name": "十巷咖哩",
            "lat": 25.064236979099842,
            "lng": 121.523763719133,
            "tier": 1,
            "priceBucket": 200,
            "address": "104臺北市中山區雙城街10巷25-1號",
            "notes": "排很久但值得，飯醬可以無限續，可以加奶油或花椒，咖哩香料味濃、炸豬排炸雞塊香酥脆汁開胃 - 鴿\n份量大吃得飽 雞皮很多 慎點",
            "tags": [
                "咖哩",
                "炸物"
            ]
        },
        {
            "name": "379 意麵",
            "lat": 25.064488773848474,
            "lng": 121.5660405218884,
            "tier": 4,
            "priceBucket": 100,
            "address": "105臺北市松山區撫遠街379巷3號",
            "notes": "國中同學家裡開的 小時候吃過 覺得非常之不好吃 這輩子不會再吃任何一次 (張皓翔",
            "tags": [
                "小吃"
            ]
        },
        {
            "name": "parco義大利麵店",
            "lat": 25.05864367475981,
            "lng": 121.55792908028889,
            "tier": 3,
            "priceBucket": 250,
            "address": "105臺北市松山區民生東路五段59號",
            "notes": "便宜大碗",
            "tags": [
                "義大利麵"
            ]
        },
        {
            "name": "麥當勞大巨蛋店",
            "lat": 25.042397796646135,
            "lng": 121.5594958679759,
            "tier": 0,
            "priceBucket": 200,
            "address": "110臺北市信義區忠孝東路四段515號D棟B2",
            "notes": "可以訂100個大麥克忙死張皓翔",
            "tags": [
                "速食"
            ]
        },
        {
            "name": "福勝亭 政大店",
            "lat": 24.98775628485847,
            "lng": 121.57565463482679,
            "tier": 6,
            "priceBucket": 200,
            "address": "116臺北市文山區指南路二段103號",
            "notes": "飲料漂髒東西 生菜的醋是工業級的酸 有夠難吃",
            "tags": [
                "炸物"
            ]
        },
        {
            "name": "WE-DO burger",
            "lat": 25.05259535366486,
            "lng": 121.55526485832284,
            "tier": 2,
            "priceBucket": 350,
            "address": "105024臺北市松山區南京東路四段133巷7弄3號",
            "notes": "漢堡仙人說T0但我覺得不夠T0",
            "tags": [
                "漢堡"
            ]
        },
        {
            "name": "冥酩カフェ&バー",
            "lat": 25.046241337308274,
            "lng": 121.50895687328733,
            "tier": 0,
            "priceBucket": 400,
            "address": "108臺北市萬華區開封街二段8號",
            "notes": "燈光美氣氛佳。酒類調製乾淨俐落；小籠包由威大廚親自蒸製，還有健談貌美的店員增添飯局趣味，不可錯過。",
            "tags": [
                "小籠包",
                "咖啡廳"
            ]
        },
        {
            "name": "メロメロ MeloMelo Cafe&bar",
            "lat": 25.045894890692857,
            "lng": 121.51367642594445,
            "tier": 1,
            "priceBucket": 600,
            "address": "100臺北市中正區開封街一段20號2樓",
            "notes": "小空合照的時候抓我的手比愛心 色豬用人家擦大腿的溼紙巾擦嘴",
            "tags": [
                "下午茶"
            ]
        },
        {
            "name": "辰噌拉麵",
            "lat": 25.000054797596864,
            "lng": 121.4585263741616,
            "tier": 2,
            "priceBucket": 200,
            "address": "220新北市板橋區四川路一段345號",
            "notes": "味道不錯吃，內用無限續麵and加湯，也開到挺晚的。",
            "tags": [
                "拉麵",
                "日式"
            ]
        },
        {
            "name": "好市多Costco 內湖店",
            "lat": 25.063953259144498,
            "lng": 121.5761401776368,
            "tier": 1,
            "priceBucket": 100,
            "address": "114臺北市內湖區舊宗路一段268號",
            "notes": "著名的50元熱狗+無限續杯汽水組合，味道份量都是其中的佼佼者，各式卷類都值得一提，沙拉適合買一大盒慢慢啃-馬叔",
            "tags": [
                "速食"
            ]
        },
        {
            "name": "無名雞排",
            "lat": 25.0076193156773,
            "lng": 121.51334493425571,
            "tier": 0,
            "priceBucket": 200,
            "address": "234新北市永和區保平路3號",
            "notes": "雞肉新鮮多汁 每天都大排長龍 不要再排了",
            "tags": [
                "炸物"
            ]
        },
        {
            "name": "喫茶 朱雫 Maid Café",
            "lat": 25.042423410046506,
            "lng": 121.51120233005963,
            "tier": 1,
            "priceBucket": 220,
            "address": "100臺北市中正區衡陽路73號2樓",
            "notes": "環境氛圍佳，飲品餐點皆有一定水準，服務良好，值得留下紀錄。",
            "tags": [
                "咖啡廳"
            ]
        },
        {
            "name": "正豐",
            "lat": 25.00820667694165,
            "lng": 121.45321686686242,
            "tier": 3,
            "priceBucket": 100,
            "address": "220新北市板橋區南雅東路51號",
            "notes": "脆皮臭豆腐與麻辣鴨血等，其實應該就普通不錯，但我跟郭台銘在這一起吃過。",
            "tags": [
                "小吃"
            ]
        },
        {
            "name": "台灣的鍋-臭臭鍋專賣店",
            "lat": 25.034887,
            "lng": 121.499893,
            "tier": 0,
            "priceBucket": 200,
            "address": "108台北市萬華區東園街124號",
            "notes": "此生必吃小火鍋店，三媽換皮界頂流，加辣海鮮鍋乃業界頂尖，\n現在很少有的150以內還幫你煮好的小火鍋（LC",
            "tags": [
                "鍋物"
            ]
        },
        {
            "name": "台北蜜瓜",
            "lat": 25.044851826624907,
            "lng": 121.51132776106896,
            "tier": 1,
            "priceBucket": 300,
            "address": "100001臺北市中正區博愛路76號博愛聯合大樓6樓",
            "notes": "看名字就知道香甜可口，能刺激感官也能滿足身心，美味毋需多言。",
            "tags": [
                "配菜"
            ]
        },
        {
            "name": "麒麟閣沙茶火鍋",
            "lat": 25.011066111156758,
            "lng": 121.51461046257238,
            "tier": 1,
            "priceBucket": 600,
            "address": "234新北市永和區永和路二段57號2樓",
            "notes": "炸旗魚塊和炸雞絕品 沙茶火鍋很香 是和一群人吃",
            "tags": [
                "鍋物"
            ]
        },
        {
            "name": "大紅袍麵店",
            "lat": 25.13723199752966,
            "lng": 121.54177323797809,
            "tier": 2,
            "priceBucket": 100,
            "address": "111臺北市士林區光華路26巷3-3號號右半",
            "notes": "對於學生黨而言價格與份量都無可挑剔，味道也是上乘，其中炒手更是招牌-馬叔",
            "tags": [
                "中式麵館"
            ]
        },
        {
            "name": "醉心拉麵",
            "lat": 25.013512671361244,
            "lng": 121.51417431168288,
            "tier": 1,
            "priceBucket": 300,
            "address": "234新北市永和區仁愛路42號",
            "notes": "在拉麵市場屬於份量大 較便宜的的高CP值選擇 醬油鴨湯溫潤",
            "tags": [
                "拉麵",
                "日式"
            ]
        },
        {
            "name": "辰拉麵",
            "lat": 25.015264688053513,
            "lng": 121.51346549647285,
            "tier": 0,
            "priceBucket": 300,
            "address": "234新北市永和區文化路110號1樓",
            "notes": "醬油豚骨濃湯黏香鹹膩 叉燒入口即化 麵條可以客製化軟硬度 背脂順滑無臭味 老闆有愛的料理魔法/看這群毛頭小子從高一吃到大四，老闆說他不能接受-龍",
            "tags": [
                "拉麵",
                "日式"
            ]
        },
        {
            "name": "陳記燒臘",
            "lat": 25.007290476531004,
            "lng": 121.5118981311334,
            "tier": 3,
            "priceBucket": 100,
            "address": "234新北市永和區保平路32號",
            "notes": "燒肉大部分時候好吃 偶爾有點硬 份量大 配菜好吃 日常一餐選擇",
            "tags": [
                "便當"
            ]
        },
        {
            "name": "廣東小吃",
            "lat": 25.030353640303787,
            "lng": 121.51410351150601,
            "tier": 6,
            "priceBucket": 100,
            "address": "100臺北市中正區泉州街9號",
            "notes": "食安問題層出不窮，蟑螂炒飯與蜈蚣仙草-馬叔 但其實就味道上是不錯的啦，直接T6稍狠。-穎 給T6的頭準備給我扭下來",
            "tags": [
                "小吃"
            ]
        },
        {
            "name": "金峰魯肉飯",
            "lat": 25.032103899623266,
            "lng": 121.51853875369636,
            "tier": 3,
            "priceBucket": 100,
            "address": "100臺北市中正區羅斯福路一段10-1號",
            "notes": "味道與價格上除去油豆腐並沒有特別出色，但味道就是很扎實，也是有名氣的店家，但環境沒有很優秀-馬叔",
            "tags": [
                "小吃",
                "麵食",
                "飯食",
                "台式"
            ]
        },
        {
            "name": "阿草赤肉羹",
            "lat": 25.059866147372066,
            "lng": 121.56573415274487,
            "tier": 3,
            "priceBucket": 100,
            "address": "105臺北市松山區新東街35號",
            "notes": "味道相當標準的肉羹，在民生社區也是小有名氣-馬叔",
            "tags": [
                "台式",
                "麵食",
                "飯食"
            ]
        },
        {
            "name": "極味棧",
            "lat": 25.007848627385034,
            "lng": 121.51429328864582,
            "tier": 3,
            "priceBucket": 100,
            "address": "234新北市永和區福和路376號",
            "notes": "份量大 調味重 學生最愛",
            "tags": [
                "中式麵館"
            ]
        },
        {
            "name": "金門廣東粥",
            "lat": 25.00827070856837,
            "lng": 121.51957160846747,
            "tier": 2,
            "priceBucket": 200,
            "address": "234新北市永和區國光路31號",
            "notes": "蛋餅酥脆 不同於平時早餐店風味 粥味道鮮美 魚肉 牛肉一同熬煮",
            "tags": [
                "台式"
            ]
        },
        {
            "name": "梅喜屋",
            "lat": 25.00841496018929,
            "lng": 121.51125599976314,
            "tier": 6,
            "priceBucket": 200,
            "address": "234新北市永和區永平路145號",
            "notes": "精挑細選 根本不能稱做壽司 甚至飯捲 應該是廚餘三明治  為什麼可以在樂華活這麼久 外師覺得好吃 真沒救",
            "tags": [
                "日式"
            ]
        },
        {
            "name": "麵屋壹の穴 ICHI",
            "lat": 25.045488738005517,
            "lng": 121.55506463186369,
            "tier": 0,
            "priceBucket": 300,
            "address": "106臺北市大安區延吉街137巷22號",
            "notes": "偉大無須多言(起床寫   持本群之心者，又如何一行內寫完。-穎",
            "tags": [
                "麵食",
                "拉麵",
                "日式"
            ]
        },
        {
            "name": "滿喜豬腳飯",
            "lat": 25.031745791490728,
            "lng": 121.49175700637339,
            "tier": 3,
            "priceBucket": 100,
            "address": "108臺北市萬華區雙園街154號",
            "notes": "雞排便當150划算 大片厚實新鮮現炸 但有點油膩 肉偶爾乾乾的",
            "tags": [
                "便當"
            ]
        },
        {
            "name": "雲南婆婆",
            "lat": 25.00844058551751,
            "lng": 121.51506979308992,
            "tier": 3,
            "priceBucket": 100,
            "address": "234新北市永和區大新街12號",
            "notes": "T3~T4中間 飽足感不夠",
            "tags": [
                "中式"
            ]
        },
        {
            "name": "鷹流拉麵 台灣本店",
            "lat": 25.039871022276955,
            "lng": 121.55386111600505,
            "tier": 7,
            "priceBucket": 300,
            "address": "106臺北市大安區忠孝東路四段216巷27弄14號",
            "notes": "誰都沒有想到誰都沒有想到，被我們寄予厚望的鷹流，在進入2023的比賽中，倒在了鷹老的手下-馬叔",
            "tags": [
                "拉麵",
                "麵食",
                "日式"
            ]
        },
        {
            "name": "永新豆漿",
            "lat": 25.008805131144424,
            "lng": 121.52112105011982,
            "tier": 3,
            "priceBucket": 100,
            "address": "234新北市永和區竹林路213巷2號",
            "notes": "毫無疑問立於永和頂點的永和豆漿",
            "tags": [
                "台式"
            ]
        },
        {
            "name": "OYES歐亞士早餐店",
            "lat": 24.998729641807905,
            "lng": 121.51208860341026,
            "tier": 0,
            "priceBucket": 100,
            "address": "235新北市中和區中安街222號",
            "notes": "好 那今天呢 風光明媚風和日麗\r\n我們一定要做個企劃 就是有一天要讓自己的胃滿足 大滿足 所以今天的企劃就是 早餐吃到飽",
            "tags": [
                "台式"
            ]
        },
        {
            "name": "一蘭 台灣台北別館",
            "lat": 25.036070859825735,
            "lng": 121.56705240561342,
            "tier": 0,
            "priceBucket": 310,
            "address": "110臺北市信義區松壽路11號B1F",
            "notes": "拉麵一碗200的年代賣298被說盤，拉麵一碗350的年代賣310，偉大，偉大。 我愛台灣我愛一蘭",
            "tags": [
                "拉麵"
            ]
        },
        {
            "name": "財神台南擔仔麵",
            "lat": 25.058363787478374,
            "lng": 121.56063231050788,
            "tier": 3,
            "priceBucket": 100,
            "address": "105臺北市松山區新中街6巷1號",
            "notes": "民生社區一家小店，米糕跟擔仔麵份量小但好吃，本來是我的小破店結果呱吉在孤獨的美食廢人裡面錄了這家，就像喜歡的作品動畫化之後來了動畫黨一樣值得優越",
            "tags": [
                "小吃"
            ]
        },
        {
            "name": "漢堡王 Burger King 一航站內店",
            "lat": 25.08109501343616,
            "lng": 121.23979482206782,
            "tier": 3,
            "priceBucket": 250,
            "address": "Gate B4, in the control1, No next to the departurearea of TerminalNo. 15號航站南路大園區桃園市337",
            "notes": "選項比一般漢堡王還少，但有靈性加持",
            "tags": [
                "速食",
                "漢堡",
                "炸物"
            ]
        },
        {
            "name": "義利坊現炒義大利麵",
            "lat": 25.057892251803526,
            "lng": 121.52153758162696,
            "tier": 2,
            "priceBucket": 150,
            "address": "10491臺北市中山區民生西路13號2樓",
            "notes": "20顆蛤蜊義大利麵味道鮮美份量十足 - 鴿",
            "tags": [
                "義大利麵",
                "麵食"
            ]
        },
        {
            "name": "大盛豬排",
            "lat": 25.014356204019045,
            "lng": 121.53390419220129,
            "tier": 2,
            "priceBucket": 300,
            "address": "100臺北市中正區羅斯福路四段52巷16弄15-1號",
            "notes": "豬排厚且香，從小吃到大；推味噌豬排，聽說咖哩普通 - 鴿",
            "tags": [
                "炸物",
                "日式",
                "咖哩"
            ]
        },
        {
            "name": "景美麵點小吃",
            "lat": 24.99147917841107,
            "lng": 121.53966524160148,
            "tier": 3,
            "priceBucket": 100,
            "address": "116臺北市文山區萬慶街13巷29號",
            "notes": "台北最便宜，炸豆腐宇宙好吃 - 鴿",
            "tags": [
                "小吃",
                "麵食",
                "炸物",
                "台式",
                "飯食"
            ]
        },
        {
            "name": "MINT PASTA 綠薄荷麵食坊",
            "lat": 24.989890894791856,
            "lng": 121.54229102574504,
            "tier": 2,
            "priceBucket": 200,
            "address": "116臺北市文山區景興路274之2號",
            "notes": "口味都不錯，推透抽細麵、泰式咖喱、薯條；空間大適合多人聚餐 - 鴿",
            "tags": [
                "麵食",
                "義大利麵"
            ]
        },
        {
            "name": "蔓尼義大利麵坊",
            "lat": 24.98963982009783,
            "lng": 121.54195384442154,
            "tier": 4,
            "priceBucket": 200,
            "address": "116臺北市文山區景興路282巷5號",
            "notes": "份量大但沒什麼味道 - 鴿/沒有飲料喝到飽之後沒有進去的理由的店-龍",
            "tags": [
                "麵食",
                "義大利麵"
            ]
        },
        {
            "name": "泰船屋",
            "lat": 24.99385412120152,
            "lng": 121.54156190540951,
            "tier": 3,
            "priceBucket": 100,
            "address": "116臺北市文山區羅斯福路六段319號1樓後棟",
            "notes": "湯跟麵味道不錯份量足，炸物有點油耗味但吃起來蠻爽蠻多的 - 鴿",
            "tags": [
                "泰式",
                "炸物",
                "麵食"
            ]
        },
        {
            "name": "食頃",
            "lat": 24.99408187772572,
            "lng": 121.54158074404623,
            "tier": 2,
            "priceBucket": 250,
            "address": "116臺北市文山區羅斯福路六段309號後棟",
            "notes": "咖哩香料味十足，可以加飯，老闆人很nice - 鴿",
            "tags": [
                "咖哩",
                "飯食"
            ]
        },
        {
            "name": "鵝媽媽鵝肉切仔麵",
            "lat": 24.990556563861468,
            "lng": 121.54240169845367,
            "tier": 2,
            "priceBucket": 200,
            "address": "116臺北市文山區景後街129號1 樓",
            "notes": "鵝肉好好吃但好貴... - 鴿",
            "tags": [
                "台式",
                "小吃"
            ]
        },
        {
            "name": "利庵咖哩 景美店",
            "lat": 24.989601719975852,
            "lng": 121.54207556286359,
            "tier": 1,
            "priceBucket": 250,
            "address": "116臺北市文山區景興路282巷3號",
            "notes": "香料味夠，配料豐富且味道不衝突 - 鴿",
            "tags": [
                "咖哩",
                "飯食"
            ]
        },
        {
            "name": "東京廚房",
            "lat": 24.9948735932634,
            "lng": 121.54243349171475,
            "tier": 2,
            "priceBucket": 300,
            "address": "116臺北市文山區景華街24號",
            "notes": "咖哩不錯，肉類都弄得很好，菜有點太多了但還行，有紫薯扣分 - 鴿",
            "tags": [
                "咖哩",
                "飯食"
            ]
        },
        {
            "name": "虹品鍋貼水餃專賣店",
            "lat": 25.030168058839344,
            "lng": 121.51642696040537,
            "tier": 6,
            "priceBucket": 100,
            "address": "3號, 1樓 No, No. 41牯嶺街中正區臺北市100",
            "notes": "水餃幾乎沒味道，湯油耗味超重 - 鴿",
            "tags": [
                "水餃",
                "小吃"
            ]
        },
        {
            "name": "眼鏡仔豬血湯旗艦店",
            "lat": 25.00566954010795,
            "lng": 121.45543949898224,
            "tier": 3,
            "priceBucket": 130,
            "address": "220新北市板橋區南雅南路一段60號",
            "notes": "炒麵和有鹹菜的湯不錯，肉燥飯類具獨特香氣，主要是希望大家可以找我來湳雅夜市吃飯。",
            "tags": [
                "台式",
                "麵食",
                "飯食",
                "小吃"
            ]
        },
        {
            "name": "鳳城燒臘",
            "lat": 25.0203065,
            "lng": 121.533749,
            "tier": 3,
            "priceBucket": 150,
            "address": "106臺北市大安區新生南路三段58之3號",
            "notes": "廣州炒麵味道很鮮；炒飯類偏乾，燴飯沒什麼味道 - 鴿",
            "tags": [
                "粵菜",
                "麵食",
                "配菜",
                "飯食"
            ]
        },
        {
            "name": "三豐芋冰城",
            "lat": 25.009795112501717,
            "lng": 121.4616717841842,
            "tier": 2,
            "priceBucket": 50,
            "address": "220新北市板橋區民族路15號",
            "notes": "清冰好吃 - 鴿",
            "tags": [
                "冰品",
                "甜點"
            ]
        },
        {
            "name": "手工阿給創始店",
            "lat": 25.16965759740891,
            "lng": 121.4414169165455,
            "tier": 5,
            "priceBucket": 100,
            "address": "251新北市淡水區中正路126號",
            "notes": "這才不是正宗的阿給 幹 - 鴿",
            "tags": [
                "小吃"
            ]
        },
        {
            "name": "三姐妹阿給",
            "lat": 25.173502175191608,
            "lng": 121.4377327197165,
            "tier": 2,
            "priceBucket": 50,
            "address": "251新北市淡水區真理街2巷1號",
            "notes": "正宗好吃的阿給，推薦加甜辣 - 鴿",
            "tags": [
                "小吃"
            ]
        }
    ]
}
